city,lat,lng,country,temp,humidity,clouds,wind
Iqaluit,63.75,-68.51,CA,5.0,77,75,2.82
Taylorville,39.55,-89.29,US,52.36,37,1,6.93
Linares,-35.85,-71.6,CL,95.67,8,0,12.08
Rikitea,-23.12,-134.97,PF,76.96,76,74,20.18
Green River,41.53,-109.47,US,42.8,56,1,28.86
Geraldton,-28.77,114.6,AU,66.2,68,33,6.93
Hermanus,-34.42,19.23,ZA,66.0,91,0,2.59
Yangi Marg`ilon,40.43,71.72,UZ,45.91,70,40,4.7
San Quintín,30.48,-115.95,MX,63.39,69,12,9.42
Atuona,-9.8,-139.03,PF,80.85,74,27,12.66
Thompson,55.74,-97.86,CA,23.0,57,75,4.7
Faanui,-16.48,-151.75,PF,81.93,78,76,10.54
Hobart,-42.88,147.33,AU,60.31,93,90,9.17
Meulaboh,4.14,96.13,ID,82.45,79,100,7.29
Nikolskoye,59.7,30.79,RU,38.19,86,90,13.42
Port Alfred,-33.59,26.89,ZA,71.01,82,0,5.99
Lorengau,-2.02,147.27,PG,84.04,73,93,9.55
Manadhoo,5.77,73.38,MV,82.98,71,11,7.34
Constitución,-35.33,-72.42,CL,67.17,57,0,12.82
Busselton,-33.65,115.33,AU,59.14,56,94,9.64
Riyadh,24.69,46.72,SA,60.8,36,0,3.36
Broken Hill,-31.95,141.43,AU,59.0,100,90,14.99
Nola,40.92,14.53,IT,49.3,81,40,5.82
George Town,5.41,100.34,MY,81.28,88,20,2.24
Kang,-23.68,22.79,BW,74.19,46,98,1.14
Airai,-8.93,125.41,TL,67.23,93,100,2.57
Ayan,56.45,138.17,RU,-4.05,94,78,2.51
Rzhaksa,52.13,42.03,RU,35.69,97,100,9.95
Cape Town,-33.93,18.42,ZA,65.68,88,3,8.05
Chokurdakh,70.63,147.92,RU,-12.89,80,0,2.98
Mahébourg,-20.41,57.7,MU,78.89,100,40,5.57
Vaini,-21.2,-175.2,TO,82.4,74,40,8.05
Fairlie,55.76,-4.86,GB,35.4,91,18,3.36
Avanigadda,16.02,80.92,IN,74.37,80,0,4.16
Santa Vitória do Palmar,-33.52,-53.37,BR,74.03,62,0,11.74
Ushuaia,-54.8,-68.3,AR,57.2,71,40,4.5
Rājmahal,25.05,87.83,IN,71.82,57,67,6.06
Ribeira Grande,38.52,-28.7,PT,57.2,62,20,5.82
Bluff,-46.6,168.33,NZ,55.99,72,0,3.0
Chui,-33.7,-53.46,UY,74.03,62,0,11.74
Nālūt,30.33,10.85,LY,55.38,35,1,10.94
Yellowknife,62.46,-114.35,CA,-4.0,64,75,12.75
Tongchuanshi,35.08,109.09,CN,34.52,67,0,5.77
Mehamn,71.04,27.85,NO,20.82,67,93,8.05
Hilo,19.73,-155.09,US,73.72,74,75,11.41
Kruisfontein,-34.0,24.73,ZA,72.34,65,93,5.99
Cidreira,-30.18,-50.21,BR,72.86,72,34,14.99
East London,-33.02,27.91,ZA,77.25,85,0,11.16
Itaqui,-29.13,-56.55,BR,93.99,23,0,7.27
Şile,41.18,29.61,TR,53.42,62,100,5.82
Assiut,27.18,31.18,EG,66.09,15,0,6.89
Henties Bay,-22.12,14.28,NA,68.0,90,41,5.01
Clyde River,70.47,-68.59,CA,-14.8,83,75,16.11
Suoyarvi,62.08,32.35,RU,30.29,93,100,14.32
Harper,4.38,-7.72,LR,80.35,89,100,3.15
Najrān,17.49,44.13,SA,66.2,39,21,4.7
Kayan,16.91,96.56,MM,71.6,94,49,3.36
Ibrā’,22.69,58.53,OM,66.52,44,0,13.33
Arica,-18.48,-70.3,CL,76.01,60,37,14.99
North Adams,42.7,-73.11,US,43.39,45,90,11.41
Longyearbyen,78.22,15.64,SJ,17.6,78,75,5.82
Kununurra,-15.77,128.73,AU,77.0,88,90,8.05
Luanda,-8.84,13.23,AO,80.6,74,0,8.05
Tasiilaq,65.61,-37.64,GL,26.6,79,98,9.17
Bredasdorp,-34.53,20.04,ZA,67.12,77,0,5.82
New Norfolk,-42.78,147.06,AU,60.24,93,90,9.17
São Félix do Xingu,-6.64,-51.99,BR,79.0,95,92,2.15
Albany,42.6,-73.97,US,43.47,64,90,10.29
Puerto Baquerizo Moreno,-0.9,-89.6,EC,78.8,94,75,4.7
Grindavik,63.84,-22.43,IS,29.46,92,75,9.17
Pevek,69.7,170.31,RU,-2.29,68,71,9.82
Upernavik,72.79,-56.15,GL,-13.11,72,95,5.7
Murakami,38.23,139.48,JP,42.8,75,75,8.05
Arraial do Cabo,-22.97,-42.03,BR,75.2,88,75,12.75
Iberia,29.95,-91.75,US,69.69,83,90,11.41
Hong Kong,22.29,114.16,HK,61.9,88,40,9.17
Nanortalik,60.14,-45.24,GL,20.14,56,0,12.77
Kumul,42.8,93.45,CN,38.1,41,99,8.03
Kudahuvadhoo,2.67,72.89,MV,82.35,74,17,11.88
Esim,4.87,-2.24,GH,80.49,87,84,2.26
Sittwe,20.15,92.9,MM,70.07,82,0,7.05
Razdolinsk,58.42,94.67,RU,21.87,94,100,11.45
Tamandaré,-8.76,-35.1,BR,84.24,75,0,13.44
Saint Anthony,45.02,-93.22,US,40.14,44,40,9.17
Jamestown,42.1,-79.24,US,33.89,97,90,14.99
Gallup,35.53,-108.74,US,59.25,12,1,8.05
Cortez,37.35,-108.59,US,56.48,18,1,12.75
Mayo,38.89,-76.51,US,62.02,31,1,10.29
Windhoek,-22.56,17.08,NA,70.36,64,92,4.7
Ketchikan,55.34,-131.65,US,34.66,100,90,23.04
Souillac,-20.52,57.52,MU,78.89,100,40,5.57
Ponta do Sol,32.67,-17.1,PT,61.03,72,40,8.05
Avarua,-21.21,-159.78,CK,84.2,79,0,5.82
Nahrin,36.06,69.13,AF,36.75,96,100,5.88
Butaritari,3.07,172.79,KI,83.01,79,100,16.15
Shimoda,34.67,138.95,JP,47.21,80,100,1.01
Vila Franca do Campo,37.72,-25.43,PT,57.2,62,20,5.82
Georgiyevka,43.04,74.71,KZ,30.2,86,0,2.24
Ābyek,36.07,50.55,IR,35.6,80,0,6.93
Mataura,-46.19,168.86,NZ,55.99,72,0,3.0
Leeton,-34.57,146.4,AU,67.03,100,90,12.75
Sur,22.57,59.53,OM,67.44,60,0,5.84
Areosa,41.72,-8.86,PT,57.27,100,75,12.75
Orkney,-26.98,26.67,ZA,60.49,61,0,3.36
Poum,-20.23,164.02,NC,81.45,78,23,17.56
Sept-Îles,50.2,-66.38,CA,30.4,86,90,16.11
St. George's,12.06,-61.75,GD,82.4,69,20,20.8
Pingyin,36.28,116.45,CN,37.0,44,0,4.88
Mar del Plata,-38.0,-57.56,AR,68.41,94,75,13.87
Chongwe,-15.33,28.68,ZM,61.9,97,100,6.35
Punta Arenas,-53.15,-70.92,CL,62.31,63,75,21.92
Kavieng,-2.57,150.8,PG,84.04,65,100,5.37
Tiznit Province,29.58,-9.5,MA,71.22,38,0,2.66
Olinda,-8.01,-34.86,BR,86.0,74,40,8.05
Santa Maria,-29.68,-53.81,BR,82.4,48,20,6.93
Lüderitz,-26.65,15.16,NA,69.8,83,0,13.87
Aksarka,66.56,67.8,RU,1.42,83,91,12.59
Arrondissement de Saint-Denis,48.92,2.33,FR,44.73,93,90,6.93
Angoram,-4.06,144.07,PG,73.78,99,100,4.07
Namatanai,-3.67,152.43,PG,83.71,73,76,7.36
Tot'ma,59.97,42.76,RU,18.75,93,68,7.47
Sinjai,-5.12,120.25,ID,83.44,71,100,15.39
Marzuq,14.4,46.47,YE,67.73,68,17,4.88
Kapaa,22.08,-159.32,US,78.13,74,20,10.29
Prokuplje,43.23,21.59,RS,42.8,81,75,4.7
Palamós,41.85,3.13,ES,49.96,93,40,2.24
Mirny,62.54,113.96,RU,-0.4,91,100,4.47
Port Hardy,50.7,-127.42,CA,44.6,70,90,9.17
Linxia Chengguanzhen,35.6,103.21,CN,30.97,38,20,9.19
Saint-Philippe,-21.36,55.77,RE,75.78,100,90,4.7
Tiksi,71.69,128.87,RU,1.62,82,100,17.69
Inta,66.03,60.17,RU,8.92,91,97,11.48
Maragogi,-9.01,-35.22,BR,84.24,75,0,13.44
Fortuna,40.6,-124.16,US,55.99,81,20,10.29
Forsytheganj,52.63,29.73,BY,46.17,92,100,10.04
Manturovo,58.34,44.76,RU,25.5,91,90,8.5
Kollam,8.88,76.6,IN,84.2,70,75,4.7
Narsaq,60.92,-46.05,GL,8.6,46,0,3.36
Dunkwa,5.97,-1.78,GH,78.13,90,100,2.95
Sitka,57.05,-135.33,US,35.6,74,75,13.87
Burley,42.54,-113.79,US,56.28,22,1,14.99
Castro,-24.79,-50.01,BR,70.45,63,0,0.51
Uíge,-7.61,15.06,AO,69.15,97,1,0.69
Qaanaaq,77.48,-69.36,GL,-16.69,99,100,2.35
Ternate,0.8,127.4,ID,75.0,93,100,1.9
Hithadhoo,-0.6,73.08,MV,82.81,77,100,15.82
São João da Barra,-21.64,-41.05,BR,73.4,94,90,9.17
Gamba,-2.65,10.0,GA,79.43,90,100,6.58
Kavaratti,10.57,72.64,IN,81.81,75,2,14.88
Ancud,-41.87,-73.82,CL,71.6,60,0,8.05
Shahrud,36.42,54.98,IR,36.95,65,0,2.86
Dikson,73.51,80.55,RU,-12.14,97,100,14.97
Mineiros,-17.57,-52.55,BR,76.33,80,7,5.44
Tomari,47.77,142.07,RU,20.66,86,100,21.63
Goderich,43.75,-81.72,CA,34.75,85,92,3.0
Phan Thiet,10.93,108.1,VN,68.27,89,68,3.74
Prince Rupert,54.32,-130.32,CA,39.2,77,75,18.34
Tazovsky,67.47,78.7,RU,8.47,95,99,6.93
Kimbe,-5.55,150.14,PG,77.27,88,84,0.78
Gulu,2.77,32.3,UG,76.06,54,99,6.29
Sola,-13.88,167.55,VU,86.0,79,75,12.26
Pisco,-13.7,-76.22,PE,72.73,30,40,16.11
Basco,20.45,121.97,PH,74.61,85,83,20.89
Juegang,32.32,121.19,CN,39.99,72,0,7.14
Kiryat Gat,31.61,34.76,IL,56.91,82,0,3.36
Nokaneng,-19.67,22.27,BW,66.34,87,0,7.54
Saugor,23.83,78.72,IN,64.85,29,0,1.81
Salalah,17.02,54.09,OM,82.4,15,4,8.05
La Paz,-16.5,-68.15,BO,60.8,38,40,13.87
Zhigansk,66.77,123.37,RU,1.67,94,100,13.56
Bambous Virieux,-20.34,57.76,MU,78.89,100,40,10.38
Darhan,49.49,105.92,MN,6.04,85,100,4.09
Alice Springs,-23.7,133.88,AU,62.6,100,0,4.7
Cherskiy,68.75,161.3,RU,1.29,73,46,14.79
Bichura,50.59,107.6,RU,8.42,90,100,2.19
Ol'khovatka,50.28,39.29,RU,42.69,90,68,8.88
Samarai,-10.62,150.67,PG,78.66,87,91,2.77
Tuktoyaktuk,69.45,-133.04,CA,-25.6,74,75,10.29
Verkhnyaya Inta,65.98,60.31,RU,7.65,94,90,12.82
Abū Zabad,12.35,29.25,SD,76.08,10,0,9.6
Paamiut,61.99,-49.67,GL,9.7,55,0,3.31
Laas,46.62,10.7,IT,25.48,85,90,4.7
Bowen,-20.02,148.23,AU,79.93,94,48,3.36
Cochrane,51.18,-114.47,CA,36.32,31,1,23.04
Bethel,41.37,-73.41,US,51.98,39,20,17.22
Chumikan,54.72,135.31,RU,0.75,96,99,1.36
Pamanukan,-6.28,107.81,ID,75.09,95,100,1.79
Touros,-5.2,-35.46,BR,84.2,70,40,10.29
Kahului,20.89,-156.47,US,78.76,58,40,3.36
Barrow,71.29,-156.79,US,-32.8,93,1,5.82
Sistranda,63.73,8.83,NO,32.0,80,40,11.41
Shirokiy,49.76,129.52,RU,2.82,97,0,2.15
Yeppoon,-23.13,150.73,AU,77.0,94,40,6.93
Tynda,55.17,124.72,RU,-0.8,97,100,1.88
Bozhou,33.88,115.77,CN,35.69,70,0,7.83
Hinton,53.4,-117.59,CA,28.45,56,100,15.48
Niono,14.25,-5.99,ML,83.84,8,0,9.24
Eilat,29.56,34.95,IL,68.0,52,0,0.83
Srednekolymsk,67.45,153.68,RU,-5.37,78,80,5.19
Tual,-5.67,132.75,ID,83.84,79,100,11.32
Pustoshka,56.34,29.37,RU,42.94,93,100,10.36
Saskylakh,71.92,114.08,RU,-2.15,97,89,2.82
Golden,39.76,-105.22,US,59.41,6,1,14.99
Provideniya,64.38,-173.3,RU,8.6,65,0,4.47
Beitbridge,-22.22,30.0,ZW,70.88,61,0,14.0
Benguela,-12.58,13.41,AO,78.26,79,28,2.55
Itarema,-2.92,-39.92,BR,77.36,91,38,4.72
Tarauacá,-8.16,-70.77,BR,91.06,50,84,3.56
Puerto Ayora,-0.74,-90.35,EC,81.64,78,75,6.93
Nizwá,22.93,57.53,OM,60.26,41,0,2.42
Lesnikovo,55.28,65.32,RU,29.75,97,100,7.07
El Batey,19.77,-70.52,DO,83.57,74,20,17.22
Loíza,18.43,-65.88,PR,80.42,74,40,13.87
Ca Mau,9.18,105.15,VN,72.81,95,28,3.22
Saint Paul Harbor,57.79,-152.41,US,17.6,48,40,21.92
Qarqīn,37.42,66.04,AF,45.82,56,100,9.91
Sosnovo-Ozerskoye,52.52,111.54,RU,1.67,97,60,3.96
Zeya,53.75,127.27,RU,1.56,97,100,7.67
Alcúdia,39.85,3.12,ES,54.99,87,48,4.7
Fare,-16.7,-151.02,PF,82.0,74,100,9.31
Agnibilékrou,7.13,-3.2,CI,76.98,87,85,2.66
Kemin,42.78,75.69,KG,34.12,48,0,6.44
Labuhan,-6.88,112.21,ID,74.39,95,97,9.04
Cabo San Lucas,22.89,-109.91,MX,70.3,43,40,11.41
Vangaindrano,-23.35,47.6,MG,70.79,95,71,6.8
Bukama,-9.2,25.85,CD,70.48,95,98,1.86
Sfântu Gheorghe,45.87,25.78,RO,44.01,86,82,3.0
Rosetta,31.4,30.42,EG,60.3,74,56,12.33
Carauari,-4.88,-66.9,BR,74.5,98,100,3.71
Lovozero,68.0,35.01,RU,9.19,75,0,7.47
Ciudad Bolivar,8.12,-63.55,VE,96.69,24,77,13.0
Esso,55.93,158.7,RU,0.09,68,70,1.52
Hualmay,-11.1,-77.61,PE,80.22,59,81,10.0
Samaná,19.21,-69.34,DO,82.4,78,20,6.93
Alès,44.13,4.08,FR,48.9,87,90,3.36
Zonguldak,41.25,31.83,TR,48.04,59,67,5.75
Kachīry,53.07,76.1,KZ,17.65,91,100,13.22
Khatanga,71.97,102.5,RU,-6.79,100,95,6.85
San Juan,-31.54,-68.54,AR,99.55,16,0,8.86
Fort Frances,48.6,-93.4,CA,33.19,50,1,4.7
Tessalit,20.2,1.01,ML,78.76,11,0,10.27
Lebu,-37.62,-73.65,CL,69.62,50,6,14.12
Dafeng,23.45,108.59,CN,49.64,80,65,4.45
Birin,26.89,88.07,NP,44.1,72,0,5.53
Port Elizabeth,-33.92,25.57,ZA,73.4,69,57,16.11
Omsukchan,62.53,155.8,RU,-10.97,99,87,10.25
Buala,-8.14,159.59,SB,82.31,80,100,4.14
Agadez,19.75,10.25,NE,71.8,8,0,5.17
Naze,28.37,129.48,JP,56.93,76,75,12.75
Ahipara,-35.17,173.17,NZ,66.99,100,95,6.55
Kloulklubed,7.04,134.26,PW,78.8,94,90,10.29
Carnarvon,-24.87,113.63,AU,77.0,100,40,10.29
Lida,53.88,25.3,BY,39.88,93,100,8.9
Saldanha,-33.01,17.94,ZA,66.2,88,0,10.29
Diapaga,12.07,1.79,BF,85.05,12,36,7.18
Havre-St-Pierre,50.23,-63.6,CA,32.0,97,90,23.04
Samaipata,-18.15,-63.87,BO,68.63,87,6,2.89
Broome,42.25,-75.83,US,41.29,69,90,12.75
Grand Gaube,-20.01,57.66,MU,78.91,100,40,6.89
Biu,10.61,12.19,NG,86.85,13,2,15.75
Dzilam González,21.28,-88.93,MX,86.61,56,0,14.16
Qandala,11.47,49.87,SO,74.53,77,0,3.4
Aykhal,66.0,111.5,RU,1.4,84,99,6.71
Oruzgan,32.83,66.0,AF,39.31,68,65,10.51
Sisimiut,66.94,-53.67,GL,-3.24,44,61,3.74
Sabang,5.89,95.32,ID,81.79,75,100,7.61
Helong,42.54,129.0,CN,5.32,90,0,5.93
Codrington,-38.27,141.97,AU,61.3,91,100,11.99
Muros,42.78,-9.06,ES,58.19,100,90,16.11
Bengkulu,-3.8,102.27,ID,72.88,83,100,3.02
Maningrida,-12.07,134.27,AU,83.68,82,97,12.37
Flin Flon,54.77,-101.86,CA,24.8,73,90,6.93
Vila Velha,-20.33,-40.29,BR,76.57,94,75,9.17
Itoman,26.12,127.67,JP,59.0,93,75,26.4
Coquimbo,-29.95,-71.34,CL,64.4,77,90,10.29
Anloga,5.79,0.9,GH,84.2,79,20,9.17
Moree,-29.47,149.85,AU,71.6,78,90,18.34
Moa,20.66,-74.94,CU,80.08,71,43,3.06
Taitung City,22.76,121.14,TW,51.51,98,100,1.52
Port Lincoln,-34.73,135.87,AU,60.53,77,100,12.53
Tarko-Sale,64.92,77.78,RU,7.0,87,92,5.1
Merauke,-8.47,140.33,ID,77.86,95,100,4.07
Datia,25.67,78.47,IN,65.73,55,0,5.84
Esperance,-33.87,121.9,AU,59.0,77,0,12.75
Naryan-Mar,67.67,53.09,RU,10.0,87,0,10.94
Camopi,3.17,-52.32,GF,77.31,89,36,4.32
Aripuanã,-9.17,-60.63,BR,83.32,70,82,3.22
Mossamedes,-15.2,12.15,AO,73.74,84,0,15.79
Les Herbiers,46.87,-1.02,FR,51.87,93,90,6.93
Russell,32.35,-85.2,US,57.4,93,90,5.82
Krasnosel'kup,65.7,82.47,RU,1.36,97,53,9.51
Mackay,-21.15,149.2,AU,78.26,94,75,10.29
Sinnamary,5.38,-52.95,GF,79.56,74,35,13.47
Solnechnyy,50.72,136.63,RU,12.78,90,93,4.23
Kumbo,6.2,10.67,CM,67.77,63,44,3.4
Tallahassee,30.44,-84.28,US,68.68,100,90,4.7
Trincomalee,8.57,81.23,LK,69.64,92,100,2.24
San Rafael,-34.62,-68.33,AR,93.72,19,0,18.23
Weilmünster,50.43,8.37,DE,37.44,93,40,1.12
Chërnaya Kholunitsa,58.85,51.72,RU,11.21,96,0,4.99
Riviere-au-Renard,49.0,-64.4,CA,30.2,86,90,9.17
Dosso,13.05,3.19,NE,83.1,9,0,9.1
Talnakh,69.49,88.4,RU,10.4,85,40,11.18
Cockburn Town,21.46,-71.14,TC,80.6,74,40,11.41
Santa Cruz de la Sierra,-17.8,-63.17,BO,91.4,49,20,9.17
Altamira,-3.2,-52.21,BR,77.5,97,98,4.41
Mkwanga,-7.12,39.21,TZ,73.4,100,75,2.24
Urusha,54.05,122.9,RU,5.67,97,100,3.89
Paraty,-23.22,-44.71,BR,71.6,73,75,2.24
Beringovskiy,63.05,179.32,RU,3.02,71,0,2.64
Dongzhen,22.38,110.94,CN,56.86,90,95,5.06
Opuwo,-18.06,13.84,NA,67.69,62,50,3.31
Jiangyou,31.77,104.72,CN,41.25,92,100,2.51
Safaga,26.73,33.94,EG,59.88,35,0,2.75
Shrewsbury,52.71,-2.75,GB,38.35,93,100,5.82
Tromsø,69.65,18.96,NO,25.97,54,100,35.57
Tonstad,58.66,6.72,NO,35.35,93,40,5.82
Banda Aceh,5.56,95.32,ID,73.31,92,40,3.51
Severo-Kuril'sk,50.68,156.12,RU,21.22,94,100,5.55
Kupang,-10.17,123.58,ID,73.4,100,20,0.4
Bubaque,11.28,-15.83,GW,79.81,70,0,16.51
Jiaojiang,28.68,121.44,CN,46.0,79,100,12.77
Christchurch,-43.53,172.63,NZ,59.4,54,0,9.17
Aksu,41.12,80.26,CN,41.81,40,0,3.36
Wabag,-5.48,143.7,PG,52.23,99,100,1.7
French Harbor,16.35,-86.43,HN,84.2,74,0,19.46
Hojāi,26.0,92.87,IN,63.14,69,0,3.6
Baijiantan,45.63,85.18,CN,28.96,68,0,10.42
Hofn,64.25,-15.21,IS,39.31,53,100,17.2
Moerai,-22.43,-151.33,PF,76.03,93,100,14.94
Isangel,-19.55,169.27,VU,84.2,79,20,10.94
Buta,2.79,24.73,CD,74.88,68,0,2.8
Šilalė,55.49,22.18,LT,36.72,91,100,5.73
Dharmadam,11.78,75.43,IN,77.0,88,20,2.24
Muhafazat Lahij,13.17,44.58,YE,76.24,59,10,6.8
Verkh-Usugli,52.7,115.17,RU,-0.76,97,4,1.25
Manbij,36.53,37.95,SY,42.8,81,40,2.24
Beloha,-25.17,45.05,MG,71.04,78,35,17.6
Olafsvik,64.89,-23.71,IS,29.64,70,57,7.16
Bac Lieu,9.29,105.72,VN,73.27,92,69,5.23
Parnamirim,-5.92,-35.26,BR,83.26,74,40,8.05
Saint-François,46.42,3.91,FR,46.47,70,90,5.82
Lagoa,39.05,-27.98,PT,59.16,68,16,19.53
Bom Jesus,-9.07,-44.36,BR,77.95,86,83,1.5
Maniitsoq,65.42,-52.9,GL,14.0,40,20,3.36
Caravelas,-17.71,-39.25,BR,81.75,82,0,17.54
Aketi,2.74,23.78,CD,77.52,60,0,3.29
Badou,7.58,0.6,TG,76.28,78,100,4.14
Ulladulla,-35.35,150.47,AU,69.87,100,90,10.29
Sakaiminato,35.55,133.23,JP,40.17,75,75,14.99
Kiama,-34.68,150.87,AU,70.18,100,90,10.29
Saint George,37.1,-113.58,US,63.0,17,0,6.93
Santa Isabel Rio Negro,-0.41,-65.02,BR,82.89,94,100,1.43
Shihezi,44.3,86.03,CN,31.44,81,41,9.48
Dingle,11.0,122.67,PH,73.4,83,75,8.84
Norman Wells,65.28,-126.83,CA,-14.8,68,75,12.75
Boulder,40.08,-105.35,US,59.92,9,1,8.05
Bathsheba,13.22,-59.52,BB,82.4,61,40,20.8
Obzor,42.82,27.88,BG,50.77,71,67,11.41
Saurimo,-9.66,20.39,AO,67.53,87,100,3.31
Kortkeros,61.81,51.58,RU,6.8,92,0,2.24
Bilma,18.69,12.92,NE,73.99,8,0,6.44
Shīeli,44.17,66.75,KZ,41.02,49,0,7.9
Celestún,20.87,-90.4,MX,82.22,71,0,8.77
Tautira,-17.73,-149.15,PF,87.48,66,75,5.82
Bondoukou,8.03,-2.8,CI,81.75,48,53,2.95
Petropavlovsk-Kamchatskiy,53.05,158.65,RU,8.6,71,100,11.18
Lata,40.16,-8.33,PT,59.0,93,75,6.93
Blagoyevo,63.37,47.92,RU,6.12,97,0,2.42
Belmonte,-15.86,-38.88,BR,82.4,74,40,12.75
Comodoro Rivadavia,-45.87,-67.5,AR,87.8,31,0,10.29
Pacific Grove,36.62,-121.92,US,69.22,27,1,3.36
Jalu,29.03,21.55,LY,63.27,30,2,4.41
Fairbanks,64.84,-147.72,US,-12.48,82,1,2.35
Richards Bay,-28.78,32.04,ZA,75.99,74,0,20.62
Sahuaripa,29.05,-109.23,MX,64.4,34,0,5.23
Palauig,15.44,119.9,PH,71.87,71,16,2.68
Bama,11.52,13.69,NG,80.85,15,0,9.26
Rudnogorsk,57.26,103.75,RU,12.29,96,100,3.15
Laguna,38.42,-121.42,US,74.26,35,1,0.63
Xining,36.62,101.77,CN,25.12,41,1,5.53
Mersing,2.43,103.84,MY,80.6,83,97,6.93
Kaitangata,-46.28,169.85,NZ,49.08,75,0,6.04
Hambantota,6.12,81.12,LK,77.0,100,75,2.24
Amazar,53.86,120.88,RU,3.07,97,100,1.61
General Pico,-35.66,-63.76,AR,98.37,12,0,11.99
Tuatapere,-46.13,167.68,NZ,57.0,68,0,3.0
Arrondissement de Morlaix,48.58,-4.0,FR,49.51,100,75,6.93
Bullhead City,35.15,-114.57,US,72.45,23,1,9.17
Klaksvík,62.23,-6.59,FO,37.4,74,0,9.17
San Antonio,29.42,-98.49,US,65.79,68,90,11.41
Te Anau,-45.42,167.72,NZ,43.84,78,0,2.46
Baruun-Urt,46.68,113.28,MN,11.62,69,97,9.75
Morehead,37.27,-87.18,US,58.19,41,1,10.29
Khor,47.89,134.95,RU,14.56,93,100,2.68
Divnoye,45.91,43.35,RU,50.52,58,21,8.23
San Miguel de Tucumán,-26.82,-65.22,AR,89.6,59,20,2.24
Saint-Louis,16.33,-15.0,SN,89.6,15,0,2.24
Cayenne,4.93,-52.33,GF,82.4,69,75,11.41
Noumea,-22.28,166.46,NC,78.85,74,75,4.7
Ballina,-28.87,153.57,AU,73.74,94,75,3.36
Gopālpur,19.27,84.92,IN,69.94,78,8,0.4
Los Llanos de Aridane,28.66,-17.92,ES,66.58,82,100,11.41
Maltahöhe,-24.83,16.98,NA,73.98,39,1,11.1
Bloomsburg,41.0,-76.45,US,50.38,70,90,5.44
Casablanca,33.59,-7.62,MA,59.59,100,40,6.93
Novobirilyussy,56.95,90.67,RU,25.05,90,100,13.29
Amoy,24.48,118.08,CN,53.6,81,90,15.66
Mount Gambier,-37.83,140.77,AU,60.8,93,90,10.29
Wasilla,61.58,-149.44,US,8.35,51,1,6.93
Chegdomyn,51.12,133.02,RU,6.17,97,98,1.07
Hamilton,39.18,-84.53,US,55.96,54,1,5.82
Charcas,23.13,-101.12,MX,77.85,21,100,23.73
Valdosta,30.83,-83.28,US,65.5,88,90,4.7
Roald,62.58,6.13,NO,34.14,60,75,6.93
Oranjestad,12.52,-70.03,AW,84.2,66,20,26.4
Padang,-0.95,100.35,ID,68.36,96,100,1.86
Umm Bāb,25.21,50.81,QA,60.75,62,0,9.4
Polovinnoye,54.79,65.99,RU,26.38,96,100,8.46
Chengde,40.97,117.94,CN,18.14,56,0,1.77
Pimentel,-6.84,-79.93,PE,66.2,29,0,17.22
Torbay,47.67,-52.73,CA,43.32,93,90,34.45
Leshukonskoye,64.9,45.76,RU,9.55,95,0,2.37
Dolores,-36.31,-57.68,AR,81.52,45,0,14.99
Ocampo,21.65,-101.5,MX,72.84,19,100,25.37
Araranguá,-28.93,-49.49,BR,73.54,71,100,8.08
Vao,-22.67,167.48,NC,79.32,76,11,8.61
Dali,25.7,100.18,CN,40.35,91,0,2.55
Oslo,59.91,10.75,NO,31.08,100,75,2.24
São Filipe,14.9,-24.5,CV,73.71,66,0,12.91
Bemban,2.27,102.37,MY,80.38,78,20,5.82
Hobo,2.58,-75.45,CO,96.8,34,20,3.36
Malakal,9.53,31.66,SS,81.97,10,0,6.73
Kampong Cham,11.99,105.46,KH,73.69,82,99,4.54
Merke,42.87,73.18,KZ,35.69,78,37,1.39
Ulaanbaatar,47.91,106.88,MN,-2.2,70,100,2.71
Lappeenranta,61.06,28.19,FI,32.83,95,90,13.87
Rāmpura,30.25,75.23,IN,55.63,79,38,6.71
Suntar,62.14,117.63,RU,-1.68,96,43,4.94
Springbok,-29.66,17.89,ZA,69.21,56,0,6.93
Marsá Maţrūḩ,31.35,27.25,EG,62.44,72,100,12.21
Ipirá,-12.16,-39.74,BR,89.06,40,38,4.05
Katsuura,35.13,140.3,JP,45.93,93,40,3.36
Cabinda,-5.55,12.2,AO,82.2,81,12,11.9
Vanimo,-2.67,141.3,PG,82.26,80,100,6.06
Oyama,36.3,139.8,JP,45.36,93,75,2.24
Fort Nelson,58.81,-122.7,CA,10.4,51,75,9.17
Presque Isle,46.68,-68.02,US,34.02,80,90,10.29
Anuradhapura,8.36,80.42,LK,68.43,93,87,4.97
Crystal Beach,42.87,-79.06,CA,37.36,65,75,11.41
San Jose,37.34,-121.89,US,73.76,31,1,1.61
Necochea,-38.55,-58.74,AR,78.21,66,0,3.0
Māgadi,12.97,77.23,IN,71.6,73,40,3.36
Ambilobe,-13.2,49.05,MG,75.83,92,68,3.76
Ouésso,1.61,16.05,CG,71.8,96,41,4.7
Karatau,43.17,70.47,KZ,34.92,77,98,2.19
Rawson,-43.3,-65.1,AR,84.2,30,20,11.41
Aklavik,68.22,-135.01,CA,-17.37,62,40,8.59
Nemuro,43.32,145.57,JP,31.69,85,100,23.35
Stromness,58.97,-3.3,GB,35.6,93,61,8.05
Maketu,-37.77,176.45,NZ,67.17,61,99,1.99
Jacksonville,30.33,-81.66,US,75.88,58,90,13.87
San Policarpo,12.18,125.51,PH,78.08,88,68,4.32
Nichinan,31.6,131.37,JP,39.47,48,75,18.34
Bras-Panon,-21.0,55.68,RE,75.6,88,40,4.7
Barrancas,10.96,-72.79,CO,93.2,34,0,17.22
Quesnel,53.0,-122.5,CA,39.2,27,75,10.29
Tosya,41.02,34.04,TR,45.41,50,67,1.32
Abéché,13.83,20.83,TD,77.5,17,0,6.29
Margate,51.38,1.39,GB,42.75,100,75,8.05
Boa Vista,2.82,-60.67,BR,93.2,36,40,11.41
Sremska Kamenica,45.22,19.84,RS,40.82,80,90,6.93
Tiarei,-17.53,-149.33,PF,87.48,66,75,5.82
Nome,64.5,-165.41,US,0.5,70,1,3.36
Naifaru,5.44,73.37,MV,82.72,71,36,6.62
Alyangula,-13.85,136.42,AU,84.2,83,75,5.82
Timmins,48.47,-81.33,CA,32.0,99,90,9.17
Progreso,21.28,-89.67,MX,99.34,32,20,13.87
Eskil,38.4,33.41,TR,50.9,50,0,14.18
Ilulissat,69.22,-51.1,GL,-9.4,57,20,8.05
Mildura,-34.2,142.15,AU,60.89,100,90,5.82
Haines Junction,60.75,-137.51,CA,-3.96,97,99,7.23
Charters Towers,-20.1,146.27,AU,75.27,91,70,4.94
Iroquois Falls,48.77,-80.68,CA,32.0,92,90,9.17
San Patricio,19.22,-104.7,MX,80.6,74,20,23.04
Gawler,-34.6,138.73,AU,60.8,72,75,11.41
Coahuayana Viejo,18.73,-103.68,MX,80.6,47,40,11.41
Coyhaique,-45.58,-72.07,CL,70.03,49,40,4.7
Yatou,37.15,122.38,CN,32.04,57,0,9.84
Sisophon,13.59,102.97,KH,77.86,81,36,3.49
Tegul'det,57.31,88.17,RU,28.98,94,100,15.23
Cabedelo,-6.98,-34.83,BR,82.4,78,20,8.05
North Bend,43.41,-124.22,US,55.63,71,75,5.82
Laramie,41.31,-105.59,US,47.39,20,69,26.4
Jinchang,38.5,102.17,CN,32.0,28,0,5.82
Atar,20.52,-13.05,MR,78.4,7,0,7.09
Berettyóújfalu,47.22,21.55,HU,39.52,86,100,3.36
Americus,32.07,-84.23,US,57.27,93,90,8.05
Albion,42.24,-84.75,US,43.12,30,1,12.75
Acapulco de Juárez,16.86,-99.89,MX,86.0,66,5,10.29
Kathu,7.92,98.33,TH,80.6,74,20,9.17
Kiunga,-6.12,141.29,PG,73.8,99,100,1.66
Matamoros,25.53,-103.25,MX,71.28,19,40,4.7
Saint-Joseph,-21.37,55.62,RE,75.69,100,90,4.7
Vostok,46.49,135.88,RU,10.78,91,100,3.09
Nova Ushytsya,48.84,27.27,UA,42.01,91,100,11.01
Mendi,-6.18,143.65,PG,54.86,99,100,1.39
Gouré,13.98,10.27,NE,84.0,5,1,7.0
Altay,47.87,88.12,CN,7.59,64,0,6.31
Bereda,43.27,-7.54,ES,58.62,82,40,14.99
Avera,33.19,-82.53,US,57.51,100,90,6.22
Río Gallegos,-51.62,-69.22,AR,71.6,35,40,25.28
Mbanza-Ngungu,-5.25,14.87,CD,71.29,94,13,2.68
Den Helder,52.96,4.76,NL,40.91,86,90,4.7
Faya,18.39,42.45,SA,61.66,44,0,12.75
Puerto Escondido,15.85,-97.07,MX,87.8,74,5,11.41
Zlatoust,55.17,59.65,RU,23.52,96,100,4.79
Cap Malheureux,-19.98,57.61,MU,78.91,100,40,6.89
Province of Mantua,45.17,10.78,IT,42.6,86,0,3.36
Sa Kaeo,13.81,102.07,TH,77.79,82,100,4.72
Yakeshi,49.28,120.73,CN,-1.43,98,100,4.41
Makkah al Mukarramah,21.43,39.83,SA,75.83,60,16,3.18
Chernivtsi,48.29,25.94,UA,42.01,84,100,3.0
Al Bardīyah,31.76,25.09,LY,59.76,74,33,6.29
Saraland,30.82,-88.07,US,63.77,100,90,5.82
Tura,25.52,90.22,IN,64.74,70,31,3.8
Tire,38.09,27.74,TR,59.0,67,75,8.05
Mercedes,-34.65,-59.43,AR,87.01,42,0,1.99
Aquiraz,-3.9,-38.39,BR,81.27,88,75,4.7
Sengiley,53.96,48.79,RU,33.8,100,90,4.47
Wanaraja,-7.17,107.98,ID,68.0,96,100,2.19
Camacha,33.08,-16.33,PT,63.37,72,75,4.7
Husavik,66.04,-17.34,IS,8.6,71,98,8.05
Moratuwa,6.77,79.88,LK,77.0,94,20,1.12
Djibo,14.1,-1.63,BF,81.32,7,0,8.46
Lewistown,40.6,-77.57,US,50.04,40,20,21.92
Ahome,25.92,-109.18,MX,73.89,30,5,12.75
Quatre Cocos,-20.21,57.76,MU,78.91,100,40,9.93
Bosaso,11.28,49.18,SO,77.02,78,0,11.65
Ixtapa,20.7,-105.2,MX,77.31,65,90,12.75
Longyan,25.11,117.02,CN,59.0,99,100,1.9
Soe,-9.86,124.28,ID,73.76,82,99,4.47
Montepuez,-13.13,39.0,MZ,68.54,93,94,2.64
Barra dos Coqueiros,-10.91,-37.04,BR,84.2,74,20,12.75
Shiraz,29.6,52.54,IR,42.8,45,0,2.06
Slave Lake,55.28,-114.77,CA,33.8,74,20,17.22
Santa Fe,-31.63,-60.7,AR,91.24,28,0,4.0
Bulolo,-7.2,146.65,PG,66.87,94,100,1.97
Benjamin Constant,-4.38,-70.03,BR,84.2,74,40,4.7
San Cristobal,7.77,-72.22,VE,91.4,46,20,11.41
Thanh Hoa,19.8,105.77,VN,60.82,85,100,9.95
Umuarama,-23.77,-53.33,BR,81.34,65,7,1.74
Antalaha,-14.9,50.28,MG,81.32,77,100,20.54
Gambēla,8.25,34.58,ET,80.02,48,61,1.88
Yuanping,38.72,112.76,CN,24.91,40,0,2.59
Leningradskiy,69.38,178.42,RU,0.57,61,51,3.58
Ambunti,-4.24,142.84,PG,74.62,99,100,1.88
Homer,59.64,-151.55,US,9.18,47,1,11.41
La Providencia,28.72,-111.58,MX,72.68,33,5,4.7
West Helena,34.55,-90.64,US,55.63,76,100,9.26
Jumla,29.27,82.18,NP,29.95,79,71,3.62
Alofi,-19.06,-169.92,NU,82.4,78,75,5.82
Minnedosa,50.25,-99.84,CA,32.0,100,90,13.87
Miraflores,19.22,-98.81,MX,79.56,15,5,4.7
Kodinsk,58.69,99.18,RU,14.34,96,78,7.34
Mezen',65.85,44.24,RU,10.45,92,0,4.32
Lompoc,34.64,-120.46,US,63.97,82,20,5.82
Taksimo,56.34,114.88,RU,-7.62,95,37,1.66
Madison,34.73,-86.57,US,57.45,58,75,5.61
